{
"type": "FeatureCollection",
"name": "ibk_tgkk_dentists",
"crs": { "type": "name", "properties": { "name": "urn:ogc:def:crs:OGC:1.3:CRS84" } },
"features": [
{ "type": "Feature", "properties": { "Name": "Dr. Achammer Elisabeth", "Adresse": "Stiftgasse 7\/I", "VPNR": 133819, "Tel. Nr.": "585868", "LAT": 47.2674257, "LON": 11.3942476, "Aufnahme": "NA", "field_8": null, "field_9": null }, "geometry": { "type": "Point", "coordinates": [ 11.3942476, 47.2674257 ] } },
{ "type": "Feature", "properties": { "Name": "DDr. Alber Markus", "Adresse": "Meinhardstraße 3", "VPNR": 983365, "Tel. Nr.": "571283", "LAT": 47.2660627, "LON": 11.3993084, "Aufnahme": "NA", "field_8": null, "field_9": null }, "geometry": { "type": "Point", "coordinates": [ 11.3993084, 47.2660627 ] } },
{ "type": "Feature", "properties": { "Name": "Dr.Altmann-Rainer Camilla", "Adresse": "Maria-Theresien Str. 23\/3", "VPNR": 653347, "Tel. Nr.": "583483", "LAT": 47.26281, "LON": 11.3947839, "Aufnahme": "NA", "field_8": null, "field_9": null }, "geometry": { "type": "Point", "coordinates": [ 11.3947839, 47.26281 ] } },
{ "type": "Feature", "properties": { "Name": "Dr. Bachler Gerhard", "Adresse": "Innstraße 7", "VPNR": 973917, "Tel. Nr.": "288918", "LAT": 47.2693002, "LON": 11.3903601, "Aufnahme": "NA", "field_8": null, "field_9": null }, "geometry": { "type": "Point", "coordinates": [ 11.3903601, 47.2693002 ] } },
{ "type": "Feature", "properties": { "Name": "Dr. Bauer Johann", "Adresse": "Michael-Gaismair-Straße 7", "VPNR": 977882, "Tel. Nr.": "586250", "LAT": 47.2604091, "LON": 11.3964165, "Aufnahme": "NA", "field_8": null, "field_9": null }, "geometry": { "type": "Point", "coordinates": [ 11.3964165, 47.2604091 ] } },
{ "type": "Feature", "properties": { "Name": "Dr. med.dent. Bracco Stefan", "Adresse": "Schützenstraße 46c", "VPNR": 438644, "Tel. Nr.": "204820", "LAT": 47.2738816, "LON": 11.4389724, "Aufnahme": "NA", "field_8": null, "field_9": null }, "geometry": { "type": "Point", "coordinates": [ 11.4389724, 47.2738816 ] } },
{ "type": "Feature", "properties": { "Name": "Dr. Ehrmann Helmut", "Adresse": "Bürgerstraße 12\/3", "VPNR": 169288, "Tel. Nr.": "572600", "LAT": 47.2646685, "LON": 11.3904395, "Aufnahme": "NA", "field_8": null, "field_9": null }, "geometry": { "type": "Point", "coordinates": [ 11.3904395, 47.2646685 ] } },
{ "type": "Feature", "properties": { "Name": "Dr. Engeln Jutta", "Adresse": "Salurner Straße 15", "VPNR": 343783, "Tel. Nr.": "908382", "LAT": 47.2620678, "LON": 11.3960506, "Aufnahme": "NA", "field_8": null, "field_9": null }, "geometry": { "type": "Point", "coordinates": [ 11.3960506, 47.2620678 ] } },
{ "type": "Feature", "properties": { "Name": "DDr. Fischer Helfried", "Adresse": "Schillerstraße 15", "VPNR": 288198, "Tel. Nr.": "571777", "LAT": 47.27477925, "LON": 11.40751273, "Aufnahme": "NA", "field_8": null, "field_9": null }, "geometry": { "type": "Point", "coordinates": [ 11.40751273, 47.27477925 ] } },
{ "type": "Feature", "properties": { "Name": "Dr. Fritz Gerhard", "Adresse": "Amraserstraße 76b", "VPNR": 222586, "Tel. Nr.": "343636", "LAT": 47.2624757, "LON": 11.4121874, "Aufnahme": "NA", "field_8": null, "field_9": null }, "geometry": { "type": "Point", "coordinates": [ 11.4121874, 47.2624757 ] } },
{ "type": "Feature", "properties": { "Name": "Dr. Gröger Joscha", "Adresse": "Oswald-Redlich-Straße 6", "VPNR": 290773, "Tel. Nr.": "344177", "LAT": 47.2730054, "LON": 11.41527354, "Aufnahme": "NA", "field_8": null, "field_9": null }, "geometry": { "type": "Point", "coordinates": [ 11.41527354, 47.2730054 ] } },
{ "type": "Feature", "properties": { "Name": "Dr. Grömmer Ursula", "Adresse": "Dr.-Stumpf-Straße 75", "VPNR": 210740, "Tel. Nr.": "292936", "LAT": 47.25433745, "LON": 11.36991619, "Aufnahme": "NA", "field_8": null, "field_9": null }, "geometry": { "type": "Point", "coordinates": [ 11.36991619, 47.25433745 ] } },
{ "type": "Feature", "properties": { "Name": "Dr. Haller Sven-Andreas", "Adresse": "Hunoldstraße 12", "VPNR": 323047, "Tel. Nr.": "343505", "LAT": 47.2632979, "LON": 11.40509228, "Aufnahme": "NA", "field_8": null, "field_9": null }, "geometry": { "type": "Point", "coordinates": [ 11.40509228, 47.2632979 ] } },
{ "type": "Feature", "properties": { "Name": "Dr. med.dent. Hassl Astrid", "Adresse": "Innstraße 7", "VPNR": 690354, "Tel. Nr.": "288918", "LAT": 47.2693002, "LON": 11.3903601, "Aufnahme": "NA", "field_8": null, "field_9": null }, "geometry": { "type": "Point", "coordinates": [ 11.3903601, 47.2693002 ] } },
{ "type": "Feature", "properties": { "Name": "DDr. Hattmannstorfer Rosa", "Adresse": "Adolf-Pichler Pl.4", "VPNR": 130751, "Tel. Nr.": "567465", "LAT": 47.266294, "LON": 11.3916964, "Aufnahme": "NA", "field_8": null, "field_9": null }, "geometry": { "type": "Point", "coordinates": [ 11.3916964, 47.266294 ] } },
{ "type": "Feature", "properties": { "Name": "Dr. Hofegger Walter", "Adresse": "Andechsstraße 16", "VPNR": 174074, "Tel. Nr.": "345236", "LAT": 47.2705954, "LON": 11.417364, "Aufnahme": "NA", "field_8": null, "field_9": null }, "geometry": { "type": "Point", "coordinates": [ 11.417364, 47.2705954 ] } },
{ "type": "Feature", "properties": { "Name": "Dr. Kraft-Kinz Stefan", "Adresse": "Sterzinger Straße 8", "VPNR": 981371, "Tel. Nr.": "585922", "LAT": 47.26232995, "LON": 11.39926668, "Aufnahme": "NA", "field_8": null, "field_9": null }, "geometry": { "type": "Point", "coordinates": [ 11.39926668, 47.26232995 ] } },
{ "type": "Feature", "properties": { "Name": "Dr. med.dent. Moriggl Alexander", "Adresse": "Musemstraße 33", "VPNR": 619561, "Tel. Nr.": "586495", "LAT": 47.2665718, "LON": 11.4011865, "Aufnahme": "NEIN", "field_8": null, "field_9": null }, "geometry": { "type": "Point", "coordinates": [ 11.4011865, 47.2665718 ] } },
{ "type": "Feature", "properties": { "Name": "DDr. Moser Marlies", "Adresse": "Fürstenweg 120", "VPNR": 426203, "Tel. Nr.": "586411", "LAT": 47.2613082, "LON": 11.3671039, "Aufnahme": "NA", "field_8": null, "field_9": null }, "geometry": { "type": "Point", "coordinates": [ 11.3671039, 47.2613082 ] } },
{ "type": "Feature", "properties": { "Name": "Dr. Müller Manfred", "Adresse": "Museumstraße 21", "VPNR": 964447, "Tel. Nr.": "585061", "LAT": 47.2669613, "LON": 11.3986396, "Aufnahme": "NA", "field_8": null, "field_9": null }, "geometry": { "type": "Point", "coordinates": [ 11.3986396, 47.2669613 ] } },
{ "type": "Feature", "properties": { "Name": "Dr. Nassberger-Höfele Eva", "Adresse": "Schneeburggasse 50a", "VPNR": 551829, "Tel. Nr.": "288665-3", "LAT": 47.26933665, "LON": 11.37835734, "Aufnahme": "NEIN", "field_8": null, "field_9": null }, "geometry": { "type": "Point", "coordinates": [ 11.37835734, 47.26933665 ] } },
{ "type": "Feature", "properties": { "Name": "Dr. Niedermoser Astrid", "Adresse": "Maria-Theresien-Straße 1", "VPNR": 281489, "Tel. Nr.": "560070", "LAT": 47.2669606, "LON": 11.3938841, "Aufnahme": "NA", "field_8": null, "field_9": null }, "geometry": { "type": "Point", "coordinates": [ 11.3938841, 47.2669606 ] } },
{ "type": "Feature", "properties": { "Name": "Dr. Oberbichler Brigitte", "Adresse": "Technikerstraße 32", "VPNR": 292427, "Tel. Nr.": "278744", "LAT": 47.2653691, "LON": 11.3482094, "Aufnahme": "NA", "field_8": null, "field_9": null }, "geometry": { "type": "Point", "coordinates": [ 11.3482094, 47.2653691 ] } },
{ "type": "Feature", "properties": { "Name": "Dr. Obermoser Evelyn", "Adresse": "Amraser-See-Straße 56", "VPNR": 358336, "Tel. Nr.": "0676-4351020", "LAT": 47.2621869, "LON": 11.4288139, "Aufnahme": "NA", "field_8": null, "field_9": null }, "geometry": { "type": "Point", "coordinates": [ 11.4288139, 47.2621869 ] } },
{ "type": "Feature", "properties": { "Name": "Dr. med.dent. Öztürk Serpil", "Adresse": "Edith-Stein-Weg 2", "VPNR": 605121, "Tel. Nr.": "890169", "LAT": 47.2603204, "LON": 11.39729675, "Aufnahme": "NA", "field_8": null, "field_9": null }, "geometry": { "type": "Point", "coordinates": [ 11.39729675, 47.2603204 ] } },
{ "type": "Feature", "properties": { "Name": "Dr. Peter Martin", "Adresse": "Museumstraße 28\/II", "VPNR": 401871, "Tel. Nr.": "583224", "LAT": 47.2664293, "LON": 11.40181, "Aufnahme": "NA", "field_8": null, "field_9": null }, "geometry": { "type": "Point", "coordinates": [ 11.40181, 47.2664293 ] } },
{ "type": "Feature", "properties": { "Name": "Dr. Philadelphy Michael", "Adresse": "Mariahilfpark 3", "VPNR": 118702, "Tel. Nr.": "292351", "LAT": 47.2678484, "LON": 11.3870062, "Aufnahme": "NA", "field_8": null, "field_9": null }, "geometry": { "type": "Point", "coordinates": [ 11.3870062, 47.2678484 ] } },
{ "type": "Feature", "properties": { "Name": "DDr. Pittracher Claudia", "Adresse": "Meinhardstraße 6", "VPNR": 986327, "Tel. Nr.": "581090", "LAT": 47.2662335, "LON": 11.3988371, "Aufnahme": "NA", "field_8": null, "field_9": null }, "geometry": { "type": "Point", "coordinates": [ 11.3988371, 47.2662335 ] } },
{ "type": "Feature", "properties": { "Name": "Dr. Priemer Peter", "Adresse": "Tiergartenstraße 27a", "VPNR": 918645, "Tel. Nr.": "281693", "LAT": 47.25892765, "LON": 11.36983147, "Aufnahme": "NA", "field_8": null, "field_9": null }, "geometry": { "type": "Point", "coordinates": [ 11.36983147, 47.25892765 ] } },
{ "type": "Feature", "properties": { "Name": "Dr. Sabadus Voichita", "Adresse": "Schöpfstraße 6b", "VPNR": 183735, "Tel. Nr.": "583700", "LAT": 47.260401, "LON": 11.3916231, "Aufnahme": "NA", "field_8": null, "field_9": null }, "geometry": { "type": "Point", "coordinates": [ 11.3916231, 47.260401 ] } },
{ "type": "Feature", "properties": { "Name": "Dr. Sandbichler Lukas", "Adresse": "Anichstraße 10", "VPNR": 153274, "Tel. Nr.": "365036", "LAT": 47.2649742, "LON": 11.3926082, "Aufnahme": "NA", "field_8": null, "field_9": null }, "geometry": { "type": "Point", "coordinates": [ 11.3926082, 47.2649742 ] } },
{ "type": "Feature", "properties": { "Name": "Dr. Sandbichler Markus", "Adresse": "Leipziger Platz 1", "VPNR": 202520, "Tel. Nr.": "365036", "LAT": 47.2640332, "LON": 11.4065731, "Aufnahme": "NA", "field_8": null, "field_9": null }, "geometry": { "type": "Point", "coordinates": [ 11.4065731, 47.2640332 ] } },
{ "type": "Feature", "properties": { "Name": "Dr.med.dent.Santoro Peter", "Adresse": "Leopoldstraße 50", "VPNR": 329096, "Tel. Nr.": "586655", "LAT": 47.256971, "LON": 11.3973985, "Aufnahme": "NA", "field_8": null, "field_9": null }, "geometry": { "type": "Point", "coordinates": [ 11.3973985, 47.256971 ] } },
{ "type": "Feature", "properties": { "Name": "Dr. Schmid-Hirschberger Marlis", "Adresse": "Maria Theresien-Straße 38", "VPNR": 184883, "Tel. Nr.": "589900", "LAT": 47.2644912, "LON": 11.3943635, "Aufnahme": "NA", "field_8": null, "field_9": null }, "geometry": { "type": "Point", "coordinates": [ 11.3943635, 47.2644912 ] } },
{ "type": "Feature", "properties": { "Name": "Dr. med.dent. Schmielau Thomas", "Adresse": "Claudiaplatz 1", "VPNR": 481320, "Tel. Nr.": "577904", "LAT": 47.2753974, "LON": 11.4055221, "Aufnahme": "NA", "field_8": null, "field_9": null }, "geometry": { "type": "Point", "coordinates": [ 11.4055221, 47.2753974 ] } },
{ "type": "Feature", "properties": { "Name": "DDr. Schnabl Herbert", "Adresse": "Glasmalereistraße 8", "VPNR": 253962, "Tel. Nr.": "585878", "LAT": 47.26167505, "LON": 11.39231582, "Aufnahme": "NA", "field_8": null, "field_9": null }, "geometry": { "type": "Point", "coordinates": [ 11.39231582, 47.26167505 ] } },
{ "type": "Feature", "properties": { "Name": "Dr.med.dent.Spisic Oliver", "Adresse": "Museumstraße 1", "VPNR": 395211, "Tel. Nr.": "573511", "LAT": 47.2673989, "LON": 11.3953024, "Aufnahme": "NA", "field_8": null, "field_9": null }, "geometry": { "type": "Point", "coordinates": [ 11.3953024, 47.2673989 ] } },
{ "type": "Feature", "properties": { "Name": "DDr. Strobl Verena", "Adresse": "Maximilianstraße 2", "VPNR": 531485, "Tel. Nr.": "341375", "LAT": 47.26281635, "LON": 11.39288233, "Aufnahme": "NA", "field_8": null, "field_9": null }, "geometry": { "type": "Point", "coordinates": [ 11.39288233, 47.26281635 ] } },
{ "type": "Feature", "properties": { "Name": "Medic dent.Toma Mihaela-Ana", "Adresse": "Andechsstraße 46\/Top 1", "VPNR": 290767, "Tel. Nr.": "345260", "LAT": 47.2680657, "LON": 11.4204211, "Aufnahme": "NA", "field_8": null, "field_9": null }, "geometry": { "type": "Point", "coordinates": [ 11.4204211, 47.2680657 ] } },
{ "type": "Feature", "properties": { "Name": "Dr. Vescoli-Toifl Franziska", "Adresse": "Museumstraße 32", "VPNR": 236394, "Tel. Nr.": "562022", "LAT": 47.2664947, "LON": 11.4001212, "Aufnahme": "NA", "field_8": null, "field_9": null }, "geometry": { "type": "Point", "coordinates": [ 11.4001212, 47.2664947 ] } },
{ "type": "Feature", "properties": { "Name": "DDr. Völkl Norbert", "Adresse": "Innrain 23", "VPNR": 177929, "Tel. Nr.": "564465", "LAT": 47.2659817, "LON": 11.3898731, "Aufnahme": "NA", "field_8": null, "field_9": null }, "geometry": { "type": "Point", "coordinates": [ 11.3898731, 47.2659817 ] } },
{ "type": "Feature", "properties": { "Name": "DDr. Weger Marcellus", "Adresse": "Anichstraße 8\/4", "VPNR": 448821, "Tel. Nr.": "571988", "LAT": 47.2643886, "LON": 11.3906661, "Aufnahme": "NA", "field_8": null, "field_9": null }, "geometry": { "type": "Point", "coordinates": [ 11.3906661, 47.2643886 ] } },
{ "type": "Feature", "properties": { "Name": "Dr. Weigerstorfer Otto", "Adresse": "Innrain 11A", "VPNR": 255063, "Tel. Nr.": "565100 ", "LAT": 47.2667439, "LON": 11.3915359, "Aufnahme": "NA", "field_8": null, "field_9": null }, "geometry": { "type": "Point", "coordinates": [ 11.3915359, 47.2667439 ] } },
{ "type": "Feature", "properties": { "Name": "Dr. Weittenhiller Andreas", "Adresse": "Neuhauserstraße 5", "VPNR": 255143, "Tel. Nr.": "584161", "LAT": 47.2574228, "LON": 11.3947722, "Aufnahme": "NA", "field_8": null, "field_9": null }, "geometry": { "type": "Point", "coordinates": [ 11.3947722, 47.2574228 ] } },
{ "type": "Feature", "properties": { "Name": "Dr. Wieser Gerhard", "Adresse": "Meinhardstraße 7", "VPNR": 952415, "Tel. Nr.": "582324", "LAT": 47.2656129, "LON": 11.3990862, "Aufnahme": "NA", "field_8": null, "field_9": null }, "geometry": { "type": "Point", "coordinates": [ 11.3990862, 47.2656129 ] } },
{ "type": "Feature", "properties": { "Name": "ZA Wille-Kollmar Walter", "Adresse": "Seilergasse 4-6", "VPNR": 223357, "Tel. Nr.": "890432", "LAT": 47.268133, "LON": 11.3924615, "Aufnahme": "NA", "field_8": null, "field_9": null }, "geometry": { "type": "Point", "coordinates": [ 11.3924615, 47.268133 ] } },
{ "type": "Feature", "properties": { "Name": "Dr. Wurzer Bernhard", "Adresse": "Museumstraße 1", "VPNR": 971126, "Tel. Nr.": "573511", "LAT": 47.2673989, "LON": 11.3953024, "Aufnahme": "NA", "field_8": null, "field_9": null }, "geometry": { "type": "Point", "coordinates": [ 11.3953024, 47.2673989 ] } },
{ "type": "Feature", "properties": { "Name": "Dr. med.dent. Zargar-Schaber Pendar", "Adresse": "Innrain 143", "VPNR": 450125, "Tel. Nr.": "90104040", "LAT": 47.25606825, "LON": 11.37741845, "Aufnahme": "NA", "field_8": null, "field_9": null }, "geometry": { "type": "Point", "coordinates": [ 11.37741845, 47.25606825 ] } },
{ "type": "Feature", "properties": { "Name": "Dr. Zemann Elfriede", "Adresse": "Brunecker Straße 2e", "VPNR": 255122, "Tel. Nr.": "561056", "LAT": 47.266292, "LON": 11.40082, "Aufnahme": "NA", "field_8": null, "field_9": null }, "geometry": { "type": "Point", "coordinates": [ 11.40082, 47.266292 ] } }
]
}
